[{
	"name": "Андин Дмитрий ",
	"city": "Кропоткин , Краснодарский край",
	"coords": {
		"lon": "40.575994",
		"lat": "45.434686"
	}
}, {
	"name": "Артемова Наталия",
	"city": "Пенза",
	"coords": {
		"lon": "45.018316",
		"lat": "53.195042"
	}
}, {
	"name": "Атрошенко Александр",
	"city": "Тула",
	"coords": {
		"lon": "37.617348",
		"lat": "54.193122"
	}
}, {
	"name": "Безверхова Анна ",
	"city": "Туапсе, Краснодарский край",
	"coords": {
		"lon": "39.073553",
		"lat": "44.09564"
	}
}, {
	"name": "Богданов Алексей ",
	"city": "Белгород",
	"coords": {
		"lon": "36.587223",
		"lat": "50.59566"
	}
}, {
	"name": "Бодров Евгений ",
	"city": "Московская обл.",
	"coords": {
		"lon": "37.380031",
		"lat": "55.815792"
	}
}, {
	"name": "Величкина Светлана ",
	"city": "Белореченск г, Краснодарский край",
	"coords": {
		"lon": "39.87114",
		"lat": "44.761141"
	}
}, {
	"name": "Вергазов Евгений ",
	"city": "Тула",
	"coords": {
		"lon": "37.617348",
		"lat": "54.193122"
	}
}, {
	"name": "Власов Антон ",
	"city": "Самара",
	"coords": {
		"lon": "50.101783",
		"lat": "53.195538"
	}
}, {
	"name": "Галеев Артур ",
	"city": "Санкт-Петербург",
	"coords": {
		"lon": "30.315635",
		"lat": "59.938951"
	}
}, {
	"name": "Ганович Мария ",
	"city": "Санкт-Петербург",
	"coords": {
		"lon": "30.315635",
		"lat": "59.938951"
	}
}, {
	"name": "Глушенко Елена ",
	"city": "Пешково с, Ростовская обл",
	"coords": {
		"lon": "39.391925",
		"lat": "47.017939"
	}
}, {
	"name": "Гончаров Геннадий ",
	"city": "Саратов",
	"coords": {
		"lon": "46.034158",
		"lat": "51.533103"
	}
}, {
	"name": "Гостев Никита ",
	"city": "Курск",
	"coords": {
		"lon": "36.192647",
		"lat": "51.730361"
	}
}, {
	"name": "Грачев Владимир ",
	"city": "Московская обл.",
	"coords": {
		"lon": "37.380031",
		"lat": "55.815792"
	}
}, {
	"name": "Гречнева Елена ",
	"city": "Тула",
	"coords": {
		"lon": "37.617348",
		"lat": "54.193122"
	}
}, {
	"name": "Ельсов Алексей ",
	"city": "Самара",
	"coords": {
		"lon": "50.101783",
		"lat": "53.195538"
	}
}, {
	"name": "Еремеева Ольга ",
	"city": " Адыгея Респ, Энем пгт",
	"coords": {
		"lon": "38.910715",
		"lat": "44.926403"
	}
}, {
	"name": "Ершов Андрей ",
	"city": "Челябинск ",
	"coords": {
		"lon": "61.402554",
		"lat": "55.159897"
	}
}, {
	"name": "Ерыгина Татьяна ",
	"city": "Тюмень ",
	"coords": {
		"lon": "65.534328",
		"lat": "57.153033"
	}
}, {
	"name": "Ефременко Андрей",
	"city": "Тольятти ",
	"coords": {
		"lon": "49.41918",
		"lat": "53.5088"
	}
}, {
	"name": "Жильцова Ирина ",
	"city": "Пенза",
	"coords": {
		"lon": "45.018316",
		"lat": "53.195042"
	}
}, {
	"name": "Зайцев Александр ",
	"city": "Волгоград",
	"coords": {
		"lon": "44.51693",
		"lat": "48.707073"
	}
}, {
	"name": "Зверев Станислав ",
	"city": " Ростов-на-Дону ",
	"coords": {
		"lon": "39.720349",
		"lat": "47.222078"
	}
}, {
	"name": "Игнатьева Татьяна ",
	"city": "Пермь",
	"coords": {
		"lon": "56.229434",
		"lat": "58.01045"
	}
}, {
	"name": "Игошев Константин ",
	"city": "Тула",
	"coords": {
		"lon": "37.617348",
		"lat": "54.193122"
	}
}, {
	"name": "Ким Дмитрий ",
	"city": "Комсомольск-на-Амуре",
	"coords": {
		"lon": "137.007948",
		"lat": "50.549923"
	}
}, {
	"name": "Корольков Евгений ",
	"city": "Нагибин х, Ростовская обл",
	"coords": {
		"lon": "40.554201",
		"lat": "49.567194"
	}
}, {
	"name": "Королькова Юлия",
	"city": "Нагибин х, Ростовская обл",
	"coords": {
		"lon": "40.554201",
		"lat": "49.567194"
	}
}, {
	"name": "Косенко Иван",
	"city": " Ульяновск",
	"coords": {
		"lon": "48.403123",
		"lat": "54.314192"
	}
}, {
	"name": "Кузнецов Антон ",
	"city": " Екатеринбург ",
	"coords": {
		"lon": "60.597465",
		"lat": "56.838011"
	}
}, {
	"name": "Кулаев Антон ",
	"city": "Тула",
	"coords": {
		"lon": "37.617348",
		"lat": "54.193122"
	}
}, {
	"name": "Курышев Дмитрий ",
	"city": "Санкт-Петербург ",
	"coords": {
		"lon": "30.315635",
		"lat": "59.938951"
	}
}, {
	"name": "Левачева Анастасия ",
	"city": "Тула",
	"coords": {
		"lon": "37.617348",
		"lat": "54.193122"
	}
}, {
	"name": "Линьков Дмитрий ",
	"city": "Екатеринбург",
	"coords": {
		"lon": "60.597465",
		"lat": "56.838011"
	}
}, {
	"name": "Лукьянов Александр",
	"city": "Барнаул ",
	"coords": {
		"lon": "83.776856",
		"lat": "53.346785"
	}
}, {
	"name": "Луцевич Илья ",
	"city": "Новосибирск",
	"coords": {
		"lon": "82.92043",
		"lat": "55.030199"
	}
}, {
	"name": "Макаров Роман ",
	"city": "Пенза",
	"coords": {
		"lon": "45.018316",
		"lat": "53.195042"
	}
}, {
	"name": "Малеев Иван ",
	"city": "Чебоксары ",
	"coords": {
		"lon": "47.251079",
		"lat": "56.146277"
	}
}, {
	"name": "Маляренко Тамара ",
	"city": "Тула",
	"coords": {
		"lon": "37.617348",
		"lat": "54.193122"
	}
}, {
	"name": "Манылова Ксения ",
	"city": "Киров ",
	"coords": {
		"lon": "49.668014",
		"lat": "58.603591"
	}
}, {
	"name": "Михайлов Павел ",
	"city": "Тула",
	"coords": {
		"lon": "37.617348",
		"lat": "54.193122"
	}
}, {
	"name": "Мовсисян Гаяне ",
	"city": "Пятигорск",
	"coords": {
		"lon": "43.07084",
		"lat": "44.03929"
	}
}, {
	"name": "Моздаков Андрей ",
	"city": "Тула",
	"coords": {
		"lon": "37.617348",
		"lat": "54.193122"
	}
}, {
	"name": "Назаров Антон ",
	"city": "Санкт-Петербург",
	"coords": {
		"lon": "30.315635",
		"lat": "59.938951"
	}
}, {
	"name": "Никипелов Алексей ",
	"city": "Бийск ",
	"coords": {
		"lon": "85.21382",
		"lat": "52.539297"
	}
}, {
	"name": "Никонова Анастасия ",
	"city": "Московская обл.",
	"coords": {
		"lon": "37.380031",
		"lat": "55.815792"
	}
}, {
	"name": "Оганесян Мгер",
	"city": "Ростовская обл.",
	"coords": {
		"lon": "41.268128",
		"lat": "47.728732"
	}
}, {
	"name": "Оносова Елена ",
	"city": "Санкт-Петербург",
	"coords": {
		"lon": "30.315635",
		"lat": "59.938951"
	}
}, {
	"name": "Онюшкин Дмитрий ",
	"city": "Санкт-Петербург",
	"coords": {
		"lon": "30.315635",
		"lat": "59.938951"
	}
}, {
	"name": "Осипов Игорь ",
	"city": "Московская обл.",
	"coords": {
		"lon": "37.380031",
		"lat": "55.815792"
	}
}, {
	"name": "Ошмарина Наталия ",
	"city": "Пермь",
	"coords": {
		"lon": "56.229434",
		"lat": "58.01045"
	}
}, {
	"name": "Рева Андрей ",
	"city": "Туапсе, Краснодарский край",
	"coords": {
		"lon": "39.073553",
		"lat": "44.09564"
	}
}, {
	"name": "Рузанова Светлана ",
	"city": "Ульяновск ",
	"coords": {
		"lon": "48.403123",
		"lat": "54.314192"
	}
}, {
	"name": "Рыжова Надежда ",
	"city": "Великий Новгород",
	"coords": {
		"lon": "31.269915",
		"lat": "58.52281"
	}
}, {
	"name": "Седашов Николай",
	"city": "Московская обл.",
	"coords": {
		"lon": "37.380031",
		"lat": "55.815792"
	}
}, {
	"name": "Сергеева Наталья ",
	"city": "Московская обл.",
	"coords": {
		"lon": "37.380031",
		"lat": "55.815792"
	}
}, {
	"name": "Сидоров Алексей ",
	"city": "Тула",
	"coords": {
		"lon": "37.617348",
		"lat": "54.193122"
	}
}, {
	"name": "Сисюкин Андрей ",
	"city": "Омск",
	"coords": {
		"lon": "73.368212",
		"lat": "54.989342"
	}
}, {
	"name": "Скопинцев Антон ",
	"city": "Воронеж ",
	"coords": {
		"lon": "39.200269",
		"lat": "51.660781"
	}
}, {
	"name": "Смолякова Мария ",
	"city": "Ульяновск ",
	"coords": {
		"lon": "48.403123",
		"lat": "54.314192"
	}
}, {
	"name": "Тарабанов Роман ",
	"city": "Краснодар",
	"coords": {
		"lon": "38.975313",
		"lat": "45.03547"
	}
}, {
	"name": "Тополев Дмитрий ",
	"city": "Пенза",
	"coords": {
		"lon": "45.018316",
		"lat": "53.195042"
	}
}, {
	"name": "Тюрина Анна ",
	"city": "Тула",
	"coords": {
		"lon": "37.617348",
		"lat": "54.193122"
	}
}, {
	"name": "Углов Сергей ",
	"city": "Тула",
	"coords": {
		"lon": "37.617348",
		"lat": "54.193122"
	}
}, {
	"name": "Унжаков Максим ",
	"city": "Красноярск",
	"coords": {
		"lon": "92.852572",
		"lat": "56.010563"
	}
}, {
	"name": "Ушацкая Надежда",
	"city": "Тольятти ",
	"coords": {
		"lon": "49.41918",
		"lat": "53.5088"
	}
}, {
	"name": "Фролов Александр ",
	"city": "Московская обл.",
	"coords": {
		"lon": "37.380031",
		"lat": "55.815792"
	}
}, {
	"name": "Черкасов Максим ",
	"city": "Тула",
	"coords": {
		"lon": "37.617348",
		"lat": "54.193122"
	}
}, {
	"name": "Шаболин Сергей ",
	"city": "Туапсе, Краснодарский край",
	"coords": {
		"lon": "39.073553",
		"lat": "44.09564"
	}
}, {
	"name": "Шебалина Ирина ",
	"city": "Елец, Липецкая обл",
	"coords": {
		"lon": "38.503653",
		"lat": "52.62419"
	}
}, {
	"name": "Шевелев Сергей ",
	"city": "Тула",
	"coords": {
		"lon": "37.617348",
		"lat": "54.193122"
	}
}, {
	"name": "Щербаков Андрей ",
	"city": "Тула",
	"coords": {
		"lon": "37.617348",
		"lat": "54.193122"
	}
}, {
	"name": "Колчина Ирина",
	"city": "Чита",
	"coords": {
		"lon": "113.501049",
		"lat": "52.033635"
	}
}, {
	"name": "Невейкин Эдуард",
	"city": "Сочи",
	"coords": {
		"lon": "39.723062",
		"lat": "43.585525"
	}
}, {
	"name": "Байкаров Александр",
	"city": "Рязань",
	"coords": {
		"lon": "39.736375",
		"lat": "54.629216"
	}
}, {
	"name": "Вороненков Сергей",
	"city": "Тула",
	"coords": {
		"lon": "37.617348",
		"lat": "54.193122"
	}
}, {
	"name": "Умеров Александр",
	"city": "Рязань",
	"coords": {
		"lon": "39.736375",
		"lat": "54.629216"
	}
}, {
	"name": "Юрий Шатохин",
	"city": "Крым",
	"coords": {
		"lon": "33.993751",
		"lat": "45.389194"
	}
}]